[
    {
        "lat": 33.4078574,
        "lng": 126.873878,
        "name": "행복한 밥상",
        "category": "한식",
        "address": "제주 서귀포시 성산읍 난고로 470 1층",
        "tel": "0507-1363-2720",
        "website": "https://naver.me/5VeldFSU"
    }
    
    ,
    
    {
        "lat": 35.15776163383064,
        "lng": 128.65889025397422,
        "name": "벚꽃연어&스시 여좌점",
        "category": "초밥, 롤",
        "address": "경남 창원시 진해구 여명로 62",
        "tel": "0507-1351-6942",
        "website": "https://naver.me/IGu30C0v"
    }
    
    ,
    
    {
        "lat": 36.6312505,
        "lng": 127.503784,
        "name": "피자헛 금천광장점",
        "category": "피자",
        "address": "충북 청주시 상당구 산성로98번길 8-1",
        "tel": "043-285-5588",
        "website": "https://naver.me/xzcnw9JJ"
    }
    
    ,
    
    {
        "lat": 37.4159037994836,
        "lng": 126.81452039512347,
        "name": "이루다米",
        "category": "카페",
        "address": "경기도 시흥시 매화1로 2 A동 301호",
        "tel": "0507-1435-2484",
        "website": "https://naver.me/5U1pSuV9"
    }

    ,
    
    {
        "lat": 35.229089932432665,
        "lng": 128.87922929645717,
        "name": "비스트로 봉리단",
        "category": "스테이크, 립",
        "address": "경남 김해시 봉황대길 52-1",
        "tel": "0507-1348-6611",
        "website": "https://naver.me/5qRAAHdx"
    }
    
    ,

    {
        "lat": 35.484900483802946,
        "lng": 128.74513261039885,
        "name": "더베이커리916",
        "category": "베이커리",
        "address": "경남 밀양시 미리벌로2길 55 1층",
        "tel": "055-352-0450",
        "website": "https://naver.me/Fa3wXxCX"
    }


]
